[
  {
    "name": "Projeto Reciclar 100% do Lixo Domestico",
    "address": "R. Vaud, 205 - Lauzane Paulista, São Paulo - SP, 02443-060, Brazil",
    "latitude": -23.470904500000003,
    "longitude": -46.649077999999996,
    "googleMapsUri": "https://maps.google.com/?cid=17978794037496851930"
  },
  {
    "name": "Ecoponto Vila Mariana",
    "address": "R. Afonso Celso, 147 - Vila Mariana, São Paulo - SP, 04119-002, Brazil",
    "latitude": -23.592918299999997,
    "longitude": -46.6349124,
    "googleMapsUri": "https://maps.google.com/?cid=10341652553425469752"
  },
  {
    "name": "Planta Feliz Adubo Orgânico",
    "address": "Avenida Professor Herman Von Ihering, 6000 6000 - Jardim Casa Grande, São Paulo - SP, 04870-423, Brazil",
    "latitude": -23.75454,
    "longitude": -46.7525753,
    "googleMapsUri": "https://maps.google.com/?cid=15066904630593382977"
  },
  {
    "name": "Ecoponto Anhaia Mello",
    "address": "R. da Prece, 313 - Vila Prudente, São Paulo - SP, 03156-210, Brazil",
    "latitude": -23.5826145,
    "longitude": -46.571073399999996,
    "googleMapsUri": "https://maps.google.com/?cid=8825875520082022411"
  },
  {
    "name": "Ecoponto São Lucas",
    "address": "R. Florêncio Sanches, 307 - Vila Prudente, São Paulo - SP, 03266-200, Brazil",
    "latitude": -23.599094299999997,
    "longitude": -46.5344651,
    "googleMapsUri": "https://maps.google.com/?cid=14866593024281027801"
  },
  {
    "name": "Ecoponto Alvarenga",
    "address": "Estr. do Alvarenga, 2475 - Jardim Itapura, São Paulo - SP, 04467-000, Brazil",
    "latitude": -23.6954356,
    "longitude": -46.651575,
    "googleMapsUri": "https://maps.google.com/?cid=12016572563829788092"
  },
  {
    "name": "Eco Computers Ltd.",
    "address": "Av. Celso Garcia, 5505 - Tatuapé, São Paulo - SP, 03063-000, Brazil",
    "latitude": -23.531558800000003,
    "longitude": -46.5597813,
    "googleMapsUri": "https://maps.google.com/?cid=9325000839815419351"
  },
  {
    "name": "MG Recicla Reciclagem de Lixo Eletrônico",
    "address": "Rua Sararé, 47 - Jardinópolis, Belo Horizonte - MG, 30512-010, Brazil",
    "latitude": -19.9408104,
    "longitude": -44.0015892,
    "googleMapsUri": "https://maps.google.com/?cid=18240643095802765991"
  },
  {
    "name": "Coleta de Lixo Eletrônico SP | Sucata Digital ® descarte correto São Paulo",
    "address": "R. Templários, 192 - Vila Formosa, São Paulo - SP, 03357-000, Brazil",
    "latitude": -23.5654215,
    "longitude": -46.557198799999995,
    "googleMapsUri": "https://maps.google.com/?cid=4825879670813915327"
  },
  {
    "name": "Ecoponto Astarte",
    "address": "R. Astarte, 500 - Vila Carrão, São Paulo - SP, 03447-140, Brazil",
    "latitude": -23.550034699999998,
    "longitude": -46.5250699,
    "googleMapsUri": "https://maps.google.com/?cid=3181209456317503098"
  },
  {
    "name": "BH Recycle Electronic Waste Recycling and Other scraps.",
    "address": "Av. General David Sarnoff, 2690 - Cidade Industrial, Contagem - MG, 32210-110, Brazil",
    "latitude": -19.9570892,
    "longitude": -44.034969499999995,
    "googleMapsUri": "https://maps.google.com/?cid=17179719718753174448"
  },
  {
    "name": "Coopermiti - Lixo Eletrônico",
    "address": "R. João Rudge, 366 - Casa Verde Baixa, São Paulo - SP, 02513-020, Brazil",
    "latitude": -23.513118,
    "longitude": -46.656126799999996,
    "googleMapsUri": "https://maps.google.com/?cid=12515958640505142581"
  },
  {
    "name": "Ecoponto Montalvania",
    "address": "R. Montalvânia, 195 - Jardim Sao Cristovao, São Paulo - SP, 03930-095, Brazil",
    "latitude": -23.579215100000003,
    "longitude": -46.4954681,
    "googleMapsUri": "https://maps.google.com/?cid=3309552380861466562"
  },
  {
    "name": "I Ecoponto Peña",
    "address": "R. Dr. Heládio, 104 - Penha de França, São Paulo - SP, 03650-020, Brazil",
    "latitude": -23.531341299999998,
    "longitude": -46.5254127,
    "googleMapsUri": "https://maps.google.com/?cid=7231951726491823877"
  },
  {
    "name": "Cooperativa de Reciclagem Crescer",
    "address": "R. Marina Ciufuli Zanfelice, 289 - Lapa, São Paulo - SP, 05040-000, Brazil",
    "latitude": -23.513469399999998,
    "longitude": -46.7072862,
    "googleMapsUri": "https://maps.google.com/?cid=8647176198509166680"
  },
  {
    "name": "Coleta de Lixo Industrialem São Paulo - Ecolife Ambiental",
    "address": "R. José Versolato, 111 - Centro, São Bernardo do Campo - SP, 09751-020, Brazil",
    "latitude": -23.6914873,
    "longitude": -46.549254,
    "googleMapsUri": "https://maps.google.com/?cid=10809369765183646857"
  },
  {
    "name": "GRUPO RECICLO",
    "address": "R. Dr. Luís Carlos, 78 - Chácara Califórnia, São Paulo - SP, 03405-100, Brazil",
    "latitude": -23.5363416,
    "longitude": -46.5504578,
    "googleMapsUri": "https://maps.google.com/?cid=15508445379503336274"
  },
  {
    "name": "VALORA: Valorização dos Resíduos Recicláveis",
    "address": "R. Albion, 327 - Lapa, São Paulo - SP, 05077-130, Brazil",
    "latitude": -23.5237266,
    "longitude": -46.7077022,
    "googleMapsUri": "https://maps.google.com/?cid=4487417422126150489"
  },
  {
    "name": "URPV - Unidade de Recebimento de Pequenos Volumes - Liberdade",
    "address": "R. Flôr de Índio, 105 - Liberdade, Belo Horizonte - MG, 31270-215, Brazil",
    "latitude": -19.8656786,
    "longitude": -43.9556073,
    "googleMapsUri": "https://maps.google.com/?cid=8873409580448511062"
  },
  {
    "name": "EcoUrbis Ambiental",
    "address": "1684 - Av. Jacu-Pêssego, 888 - Colônia (Zona Leste), São Paulo - SP, 08260-000, Brazil",
    "latitude": -23.5705816,
    "longitude": -46.4476539,
    "googleMapsUri": "https://maps.google.com/?cid=18027065650634463735"
  }
]