[
  {
    "name": "Bem Reciclagem",
    "address": "Av. Pastor Martin Luther King Jr., 3689 - Inhaúma, Rio de Janeiro - RJ, 20765-630, Brazil",
    "latitude": -22.8746086,
    "longitude": -43.282351999999996,
    "googleMapsUri": "https://maps.google.com/?cid=2337052352862236241"
  },
  {
    "name": "Reciclagem De Lixo Eletrônicos",
    "address": "R. Três, 560 - Campo Grande, Rio de Janeiro - RJ, 23067-140, Brazil",
    "latitude": -22.8802505,
    "longitude": -43.611875,
    "googleMapsUri": "https://maps.google.com/?cid=5836774956441224499"
  },
  {
    "name": "Coleta de Lixo Eletrônico sem custo",
    "address": "R. Sen. Dantas, 23 - Centro, Rio de Janeiro - RJ, 20031-202, Brazil",
    "latitude": -22.911495799999997,
    "longitude": -43.176810499999995,
    "googleMapsUri": "https://maps.google.com/?cid=12695249863277859249"
  },
  {
    "name": "ColetAmbiental coletamos sem custos",
    "address": "R. Sen. Dantas - Centro, Rio de Janeiro - RJ, 21240-330, Brazil",
    "latitude": -22.9108488,
    "longitude": -43.177166299999996,
    "googleMapsUri": "https://maps.google.com/?cid=9843428345496331452"
  },
  {
    "name": "MG Recicla Reciclagem de Lixo Eletrônico",
    "address": "Rua Sararé, 47 - Jardinópolis, Belo Horizonte - MG, 30512-010, Brazil",
    "latitude": -19.9408104,
    "longitude": -44.0015892,
    "googleMapsUri": "https://maps.google.com/?cid=18240643095802765991"
  },
  {
    "name": "Rio Park Recicla",
    "address": "Estr. da Água Branca, 1176 - Realengo, Rio de Janeiro - RJ, 21730-000, Brazil",
    "latitude": -22.8679946,
    "longitude": -43.4269677,
    "googleMapsUri": "https://maps.google.com/?cid=6573008188807925407"
  },
  {
    "name": "Coleta Certa - Coleta Seletiva e Reciclagem de Resíduos Niterói",
    "address": "R. Gen. Pereira da Silva, 136 - Icaraí, Niterói - RJ, 24220-031, Brazil",
    "latitude": -22.903044599999998,
    "longitude": -43.1114259,
    "googleMapsUri": "https://maps.google.com/?cid=4565240119450578511"
  },
  {
    "name": "Recicla-RJ",
    "address": "R. Silva Braga, 43 - Piedade, Rio de Janeiro - RJ, 20740-500, Brazil",
    "latitude": -22.900550799999998,
    "longitude": -43.3151406,
    "googleMapsUri": "https://maps.google.com/?cid=12650578418022247609"
  },
  {
    "name": "COOPAMA - Cooperativa Popular Amigos do Meio Ambiente Ltda",
    "address": "R. Miguel Ângelo, 385 - Maria da Graça, Rio de Janeiro - RJ, 20785-901, Brazil",
    "latitude": -22.8862123,
    "longitude": -43.264534399999995,
    "googleMapsUri": "https://maps.google.com/?cid=5144929853306501206"
  },
  {
    "name": "Empresa De Reciclagem",
    "address": "Estr. João Melo, 229-319 - Campo Grande, Rio de Janeiro - RJ, 23092-080, Brazil",
    "latitude": -22.873812299999997,
    "longitude": -43.548788200000004,
    "googleMapsUri": "https://maps.google.com/?cid=9846521424734987661"
  },
  {
    "name": "Composta'e Resíduos",
    "address": "Rua Conde de Bonfim, 909 - Tijuca, Rio de Janeiro - RJ, 20530-002, Brazil",
    "latitude": -22.9376583,
    "longitude": -43.2461607,
    "googleMapsUri": "https://maps.google.com/?cid=13285277201244096974"
  },
  {
    "name": "COOPIDEAL - Cooperativa de Trabalho e Produção dos Catadores de Materiais Recicláveis IDEAL",
    "address": "Rua Miguel Ângelo, 385 Galpão N - Maria da Graça, Rio de Janeiro - RJ, 20785-222, Brazil",
    "latitude": -22.8865165,
    "longitude": -43.2645622,
    "googleMapsUri": "https://maps.google.com/?cid=8292957366716486542"
  },
  {
    "name": "CRR - Centro de Reciclagem Rio Ltda",
    "address": "Av. Sen. Vitórino Freire, 365 - Coelho Neto, Rio de Janeiro - RJ, 21530-220, Brazil",
    "latitude": -22.8301888,
    "longitude": -43.361683899999996,
    "googleMapsUri": "https://maps.google.com/?cid=11403860632658103426"
  },
  {
    "name": "Recicloteca - Centro de Informações Ambientais",
    "address": "ENDEREÇO DESATIVADO: - R. Miranda Valverde, 118/101 - Botafogo, Rio de Janeiro - RJ, 22281-000, Brazil",
    "latitude": -22.952818999999998,
    "longitude": -43.194846999999996,
    "googleMapsUri": "https://maps.google.com/?cid=3563235859641588181"
  },
  {
    "name": "Light Recicla Humaitá",
    "address": "Rua Humaitá, 19 - Humaitá, Rio de Janeiro - RJ, 22261-000, Brazil",
    "latitude": -22.9539835,
    "longitude": -43.1969826,
    "googleMapsUri": "https://maps.google.com/?cid=14851998682847880343"
  },
  {
    "name": "Contentor de Lixo 240l e 120l, Saco de Lixo, Papel Toalha Elite Melhoramentos",
    "address": "Estr. do Pau-Ferro, 1310 B01 Sl606 - Freguesia (Jacarepaguá), Rio de Janeiro - RJ, 22745-056, Brazil",
    "latitude": -22.9319264,
    "longitude": -43.327112899999996,
    "googleMapsUri": "https://maps.google.com/?cid=6260129733296599179"
  },
  {
    "name": "Coop Ceu Azul",
    "address": "R. Isidro Rocha, 70 - Vigário Geral, Rio de Janeiro - RJ, 21241-180, Brazil",
    "latitude": -22.806673099999998,
    "longitude": -43.3149118,
    "googleMapsUri": "https://maps.google.com/?cid=8916630177719687240"
  },
  {
    "name": "BOTAFOGO RECICLAGEM",
    "address": "R. Francisco Bernardino, 77 - Riachuelo, Rio de Janeiro - RJ, 20961-060, Brazil",
    "latitude": -22.8997122,
    "longitude": -43.258443,
    "googleMapsUri": "https://maps.google.com/?cid=3783532607241612835"
  },
  {
    "name": "Santa Cecília Resíduos (Filial)",
    "address": "Av. Automóvel Clube, 3276 - Vilar dos Teles, São João de Meriti - RJ, 25565-171, Brazil",
    "latitude": -22.769671799999998,
    "longitude": -43.361329399999995,
    "googleMapsUri": "https://maps.google.com/?cid=11364803297190910753"
  },
  {
    "name": "Recicla Já (Compramos Sucata de Plástico)",
    "address": "R. Teresa Cristina, 291 - Quadra 08 Lote: 10 - Figueira, Duque de Caxias - RJ, 25230-480, Brazil",
    "latitude": -22.693763,
    "longitude": -43.2929184,
    "googleMapsUri": "https://maps.google.com/?cid=13105910671181383635"
  }
]