[
  {
    "name": "Ecológica Coleta e Destinação de Resíduos Químicos Ltda.",
    "address": "Rua Octávio de Faria, 81 - sala 210 - Recreio dos Bandeirantes, Rio de Janeiro - RJ, 22795-415, Brazil",
    "latitude": -23.017250999999998,
    "longitude": -43.4577489,
    "googleMapsUri": "https://maps.google.com/?cid=5668965518387059242"
  },
  {
    "name": "Environmental Clean Serv Collection and Transport",
    "address": "R. Paraopeba, 330 - Vila Sarapui, Duque de Caxias - RJ, 25051-290, Brazil",
    "latitude": -22.864494000000004,
    "longitude": -43.245043,
    "googleMapsUri": "https://maps.google.com/?cid=16220843216885449966"
  },
  {
    "name": "RESIDUO ALL",
    "address": "R. Felizardo Fortes, 324 - Ramos, Rio de Janeiro - RJ, 21031-160, Brazil",
    "latitude": -22.841875599999998,
    "longitude": -43.2548373,
    "googleMapsUri": "https://maps.google.com/?cid=14428754150487002385"
  },
  {
    "name": "Coleta de Lixo Eletrônico sem custo",
    "address": "R. Sen. Dantas, 23 - Centro, Rio de Janeiro - RJ, 20031-202, Brazil",
    "latitude": -22.911495799999997,
    "longitude": -43.176810499999995,
    "googleMapsUri": "https://maps.google.com/?cid=12695249863277859249"
  },
  {
    "name": "Solução Gerenciamento de Resíduos Sólidos Industriais",
    "address": "R. Ferreira Câmara, 41 - Maria da Graça, Rio de Janeiro - RJ, 20785-470, Brazil",
    "latitude": -22.8838807,
    "longitude": -43.261330199999996,
    "googleMapsUri": "https://maps.google.com/?cid=8473552596584347463"
  },
  {
    "name": "ColetAmbiental coletamos sem custos",
    "address": "R. Sen. Dantas - Centro, Rio de Janeiro - RJ, 21240-330, Brazil",
    "latitude": -22.9108488,
    "longitude": -43.177166299999996,
    "googleMapsUri": "https://maps.google.com/?cid=9843428345496331452"
  },
  {
    "name": "Recicla-RJ",
    "address": "R. Silva Braga, 43 - Piedade, Rio de Janeiro - RJ, 20740-500, Brazil",
    "latitude": -22.900550799999998,
    "longitude": -43.3151406,
    "googleMapsUri": "https://maps.google.com/?cid=12650578418022247609"
  },
  {
    "name": "Coop Ceu Azul",
    "address": "R. Isidro Rocha, 70 - Vigário Geral, Rio de Janeiro - RJ, 21241-180, Brazil",
    "latitude": -22.806673099999998,
    "longitude": -43.3149118,
    "googleMapsUri": "https://maps.google.com/?cid=8916630177719687240"
  },
  {
    "name": "COLETA DE LIXO ELETRÔNICO",
    "address": "Rua Vale dos Ipês - Jacarepaguá, Rio de Janeiro - RJ, 22710-675, Brazil",
    "latitude": -22.9476359,
    "longitude": -43.383663,
    "googleMapsUri": "https://maps.google.com/?cid=6514535523773173599"
  },
  {
    "name": "Branco Ambiental | Transportes, Gerenciamento e Tratamento de Resíduos",
    "address": "R. Franco de Almeida, 13 - Vila Maria Helena, Duque de Caxias - RJ, 25251-470, Brazil",
    "latitude": -22.6682329,
    "longitude": -43.2659247,
    "googleMapsUri": "https://maps.google.com/?cid=9766244063642654862"
  },
  {
    "name": "Rodocon Resíduos",
    "address": "Estr. da Figueira, 623C - Chácaras Rio-Petrópolis, Duque de Caxias - RJ, 25243-151, Brazil",
    "latitude": -22.661870399999998,
    "longitude": -43.3025775,
    "googleMapsUri": "https://maps.google.com/?cid=13697761787917052002"
  },
  {
    "name": "Empresa De Reciclagem",
    "address": "Estr. João Melo, 229-319 - Campo Grande, Rio de Janeiro - RJ, 23092-080, Brazil",
    "latitude": -22.873812299999997,
    "longitude": -43.548788200000004,
    "googleMapsUri": "https://maps.google.com/?cid=9846521424734987661"
  },
  {
    "name": "ABREID - RECICLAGEM DE LIXO ELETRÔNICO",
    "address": "R. Max Albin, S/Nº, Quadra B, Lote 18 - Itaipu, Niterói - RJ, 24346-056, Brazil",
    "latitude": -22.968517100000003,
    "longitude": -43.0443699,
    "googleMapsUri": "https://maps.google.com/?cid=7903404976673537874"
  },
  {
    "name": "Resgate Ambiental",
    "address": "Av. Washington Luís, 10 - Centro, Niterói - RJ, 24030-250, Brazil",
    "latitude": -22.8861067,
    "longitude": -43.1167868,
    "googleMapsUri": "https://maps.google.com/?cid=2639007032611505823"
  },
  {
    "name": "ARO Coleta de Lixo Eletronico",
    "address": "R. da Batata, 112 - Penha Circular, Rio de Janeiro - RJ, 21011-020, Brazil",
    "latitude": -22.820231099999997,
    "longitude": -43.2782729,
    "googleMapsUri": "https://maps.google.com/?cid=529670573803408064"
  },
  {
    "name": "Cetes Ambiental - Gestão de Resíduos com Coleta, Transporte e Tratamento de Resíduos - Destinação e Descarte Correto",
    "address": "R. Cássia Francisco, 224 - Sítio São José, Suzano - SP, 08675-250, Brazil",
    "latitude": -23.549455599999998,
    "longitude": -46.3088343,
    "googleMapsUri": "https://maps.google.com/?cid=15570030002703455407"
  },
  {
    "name": "Saniplan Engenharia e Serviços Ambientais",
    "address": "Av. Glaucio Gil, 1246 - Sala 303 - Recreio dos Bandeirantes, Rio de Janeiro - RJ, 22790-177, Brazil",
    "latitude": -23.013785,
    "longitude": -43.461127,
    "googleMapsUri": "https://maps.google.com/?cid=4839437697126584205"
  }
]