[
  {
    "name": "Reciclagem De Lixo Eletrônicos",
    "address": "R. Três, 560 - Campo Grande, Rio de Janeiro - RJ, 23067-140, Brazil",
    "latitude": -22.8802505,
    "longitude": -43.611875,
    "googleMapsUri": "https://maps.google.com/?cid=5836774956441224499"
  },
  {
    "name": "Coleta de Lixo Eletrônico sem custo",
    "address": "R. Sen. Dantas, 23 - Centro, Rio de Janeiro - RJ, 20031-202, Brazil",
    "latitude": -22.911495799999997,
    "longitude": -43.176810499999995,
    "googleMapsUri": "https://maps.google.com/?cid=12695249863277859249"
  },
  {
    "name": "ColetAmbiental coletamos sem custos",
    "address": "R. Sen. Dantas - Centro, Rio de Janeiro - RJ, 21240-330, Brazil",
    "latitude": -22.9108488,
    "longitude": -43.177166299999996,
    "googleMapsUri": "https://maps.google.com/?cid=9843428345496331452"
  },
  {
    "name": "COOPAMA - Cooperativa Popular Amigos do Meio Ambiente Ltda",
    "address": "R. Miguel Ângelo, 385 - Maria da Graça, Rio de Janeiro - RJ, 20785-901, Brazil",
    "latitude": -22.8862123,
    "longitude": -43.264534399999995,
    "googleMapsUri": "https://maps.google.com/?cid=5144929853306501206"
  },
  {
    "name": "Recicloteca - Centro de Informações Ambientais",
    "address": "ENDEREÇO DESATIVADO: - R. Miranda Valverde, 118/101 - Botafogo, Rio de Janeiro - RJ, 22281-000, Brazil",
    "latitude": -22.952818999999998,
    "longitude": -43.194846999999996,
    "googleMapsUri": "https://maps.google.com/?cid=3563235859641588181"
  },
  {
    "name": "Coleta Certa - Coleta Seletiva e Reciclagem de Resíduos Niterói",
    "address": "R. Gen. Pereira da Silva, 136 - Icaraí, Niterói - RJ, 24220-031, Brazil",
    "latitude": -22.903044599999998,
    "longitude": -43.1114259,
    "googleMapsUri": "https://maps.google.com/?cid=4565240119450578511"
  },
  {
    "name": "Recicla-RJ",
    "address": "R. Silva Braga, 43 - Piedade, Rio de Janeiro - RJ, 20740-500, Brazil",
    "latitude": -22.900550799999998,
    "longitude": -43.3151406,
    "googleMapsUri": "https://maps.google.com/?cid=12650578418022247609"
  },
  {
    "name": "COOPIDEAL - Cooperativa de Trabalho e Produção dos Catadores de Materiais Recicláveis IDEAL",
    "address": "Rua Miguel Ângelo, 385 Galpão N - Maria da Graça, Rio de Janeiro - RJ, 20785-222, Brazil",
    "latitude": -22.8865165,
    "longitude": -43.2645622,
    "googleMapsUri": "https://maps.google.com/?cid=8292957366716486542"
  },
  {
    "name": "VIDRO LIMPO",
    "address": "Estrada Da Prata, 476 - Andrade Araujo, Belford Roxo - RJ, 26135-005, Brazil",
    "latitude": -22.748355699999998,
    "longitude": -43.4178183,
    "googleMapsUri": "https://maps.google.com/?cid=14716525883699330016"
  },
  {
    "name": "Ponto de Coleta Seletiva - LEV'S - Vidro",
    "address": "R. dos Aimorés, 1106 - Centro, Belo Horizonte - MG, 30130-170, Brazil",
    "latitude": -19.9292102,
    "longitude": -43.9345631,
    "googleMapsUri": "https://maps.google.com/?cid=13705043781512486686"
  },
  {
    "name": "Light Recicla Humaitá",
    "address": "Rua Humaitá, 19 - Humaitá, Rio de Janeiro - RJ, 22261-000, Brazil",
    "latitude": -22.9539835,
    "longitude": -43.1969826,
    "googleMapsUri": "https://maps.google.com/?cid=14851998682847880343"
  },
  {
    "name": "Descarte Rápido",
    "address": "Rua Alianca, 101 - Padre Miguel, Rio de Janeiro - RJ, 21775-040, Brazil",
    "latitude": -22.885588,
    "longitude": -43.441951,
    "googleMapsUri": "https://maps.google.com/?cid=15187476961406517008"
  },
  {
    "name": "reciclerio",
    "address": "R. Cel. García Pachêco, 59 - galpão - Parada de Lucas, Rio de Janeiro - RJ, 21250-590, Brazil",
    "latitude": -22.823000699999998,
    "longitude": -43.3123937,
    "googleMapsUri": "https://maps.google.com/?cid=2866138974419572407"
  },
  {
    "name": "Coop Ceu Azul",
    "address": "R. Isidro Rocha, 70 - Vigário Geral, Rio de Janeiro - RJ, 21241-180, Brazil",
    "latitude": -22.806673099999998,
    "longitude": -43.3149118,
    "googleMapsUri": "https://maps.google.com/?cid=8916630177719687240"
  },
  {
    "name": "COLETA DE LIXO ELETRÔNICO",
    "address": "Rua Vale dos Ipês - Jacarepaguá, Rio de Janeiro - RJ, 22710-675, Brazil",
    "latitude": -22.9476359,
    "longitude": -43.383663,
    "googleMapsUri": "https://maps.google.com/?cid=6514535523773173599"
  },
  {
    "name": "Ecopontos Cabritos",
    "address": "R. Euclídes da Rocha, 600 - Copacabana, Rio de Janeiro - RJ, 22031-100, Brazil",
    "latitude": -22.9650155,
    "longitude": -43.1946392,
    "googleMapsUri": "https://maps.google.com/?cid=15131619385611069610"
  },
  {
    "name": "E-lixo Rj - Botafogo",
    "address": "Vigário Geral, Rio de Janeiro - State of Rio de Janeiro, 21241-180, Brazil",
    "latitude": -22.9537838,
    "longitude": -43.1902751,
    "googleMapsUri": "https://maps.google.com/?cid=1126658101507677778"
  },
  {
    "name": "ARO Coleta de Lixo Eletronico",
    "address": "R. da Batata, 112 - Penha Circular, Rio de Janeiro - RJ, 21011-020, Brazil",
    "latitude": -22.820231099999997,
    "longitude": -43.2782729,
    "googleMapsUri": "https://maps.google.com/?cid=529670573803408064"
  },
  {
    "name": "Ecoponto Padre Veloso",
    "address": "R. São Clemente, 312 - Botafogo, Rio de Janeiro - RJ, 22260-004, Brazil",
    "latitude": -22.9499857,
    "longitude": -43.1926025,
    "googleMapsUri": "https://maps.google.com/?cid=10363412883294615249"
  }
]