[
  {
    "name": "MG Recicla Reciclagem de Lixo Eletrônico",
    "address": "Rua Sararé, 47 - Jardinópolis, Belo Horizonte - MG, 30512-010, Brazil",
    "latitude": -19.9408104,
    "longitude": -44.0015892,
    "googleMapsUri": "https://maps.google.com/?cid=18240643095802765991"
  },
  {
    "name": "BH Recycle Electronic Waste Recycling and Other scraps.",
    "address": "Av. General David Sarnoff, 2690 - Cidade Industrial, Contagem - MG, 32210-110, Brazil",
    "latitude": -19.9570892,
    "longitude": -44.034969499999995,
    "googleMapsUri": "https://maps.google.com/?cid=17179719718753174448"
  },
  {
    "name": "Ponto de Coleta de Lixo Eletrônico - PROPAM",
    "address": "R. Rad. Ubaldo Ferreira, 20 - Castelo, Belo Horizonte - MG, 31330-294, Brazil",
    "latitude": -19.876649699999998,
    "longitude": -43.9940334,
    "googleMapsUri": "https://maps.google.com/?cid=5801323347902493062"
  },
  {
    "name": "Lithium Informática - Ecoponto E-MILE - Descarte Lixo Eletrônico",
    "address": "R. Padre Eustáquio, 443 - Carlos Prates, Belo Horizonte - MG, 30710-580, Brazil",
    "latitude": -19.9139503,
    "longitude": -43.958006100000006,
    "googleMapsUri": "https://maps.google.com/?cid=14706624259078378466"
  },
  {
    "name": "Coletar Reciclagem de Eletrônicos",
    "address": "R. Cel. Docha, 118 - Inconfidentes, Contagem - MG, 32340-260, Brazil",
    "latitude": -19.9600366,
    "longitude": -44.03767510000001,
    "googleMapsUri": "https://maps.google.com/?cid=785670208739894079"
  },
  {
    "name": "Reciclagem Horizonte BH",
    "address": "R. Salomão Camargos, 54 - Jardinópolis, Belo Horizonte - MG, 30532-230, Brazil",
    "latitude": -19.943107599999998,
    "longitude": -44.0048183,
    "googleMapsUri": "https://maps.google.com/?cid=12837953774266496971"
  },
  {
    "name": "Ecoponto E-MILE de Lixo Eletrônico (CTRL+Play)",
    "address": "R. Bernardo Guimarães, 3000 - Santo Agostinho, Belo Horizonte - MG, 30140-083, Brazil",
    "latitude": -19.925871,
    "longitude": -43.9527431,
    "googleMapsUri": "https://maps.google.com/?cid=6799623481949339210"
  },
  {
    "name": "Reciclando BH",
    "address": "Av. Álvaro da Silveira, 170 - Barreiro, Belo Horizonte - MG, 30662-537, Brazil",
    "latitude": -19.9719886,
    "longitude": -44.018167,
    "googleMapsUri": "https://maps.google.com/?cid=1613440270579423004"
  },
  {
    "name": "Reciclar",
    "address": "Rua José Marra Freitas, 980 - Nova Esperança, Belo Horizonte - MG, 31230-290, Brazil",
    "latitude": -19.900590599999997,
    "longitude": -43.9621804,
    "googleMapsUri": "https://maps.google.com/?cid=18153943082624654626"
  },
  {
    "name": "SOS GREEN Gestão de Descarte Eletrônico",
    "address": "R. Contagem, 868 - loja c - Santa Ines, Belo Horizonte - MG, 31080-255, Brazil",
    "latitude": -19.8894554,
    "longitude": -43.905776800000005,
    "googleMapsUri": "https://maps.google.com/?cid=13568047759688273150"
  },
  {
    "name": "URPV - Unidade de Recebimento de Pequenos Volumes - Liberdade",
    "address": "R. Flôr de Índio, 105 - Liberdade, Belo Horizonte - MG, 31270-215, Brazil",
    "latitude": -19.8656786,
    "longitude": -43.9556073,
    "googleMapsUri": "https://maps.google.com/?cid=8873409580448511062"
  },
  {
    "name": "EMILE Reciclagem de Eletroeletrônicos",
    "address": "Av. Afonso Pena, 4000 - Centro, Belo Horizonte - MG, 30130-009, Brazil",
    "latitude": -19.9453905,
    "longitude": -43.9224724,
    "googleMapsUri": "https://maps.google.com/?cid=3116915338598907265"
  },
  {
    "name": "Projeto Pro Verde - Lixo Eletrônico",
    "address": "R. Itajubá, 170 A - Floresta, Belo Horizonte - MG, 30150-380, Brazil",
    "latitude": -19.9151839,
    "longitude": -43.9305077,
    "googleMapsUri": "https://maps.google.com/?cid=5310481154771040767"
  },
  {
    "name": "COLETABH",
    "address": "R. Afluentes, 100 - Serrano, Belo Horizonte - MG, 30882-110, Brazil",
    "latitude": -19.887330199999997,
    "longitude": -44.008953899999995,
    "googleMapsUri": "https://maps.google.com/?cid=7675315384447747249"
  },
  {
    "name": "Recicla.Club",
    "address": "Av. Bias Fortes, 382 - 14º andar - Lourdes, Belo Horizonte - MG, 30170-011, Brazil",
    "latitude": -19.9294138,
    "longitude": -43.940629,
    "googleMapsUri": "https://maps.google.com/?cid=9105221791416273387"
  },
  {
    "name": "Reciclagem Tc",
    "address": "Av. Teresa Cristina, 8880 - Betânia, Belo Horizonte - MG, 30662-537, Brazil",
    "latitude": -19.9579473,
    "longitude": -43.994594299999996,
    "googleMapsUri": "https://maps.google.com/?cid=7439365322124626995"
  },
  {
    "name": "E-MILE Coleta Lixo Eletrônico",
    "address": "R. Pouso Alegre, 2616 - Horto, Belo Horizonte - MG, 31015-025, Brazil",
    "latitude": -19.9102212,
    "longitude": -43.916267399999995,
    "googleMapsUri": "https://maps.google.com/?cid=9902679822819546038"
  }
]