[
  {
    "name": "BR Aparas - Reciclagem e Gerenciamento de Resíduos",
    "address": "Estr. do Ganchinho, 2981 - Umbará, Curitiba - PR, 81930-165, Brazil",
    "latitude": -25.559698899999997,
    "longitude": -49.2689551,
    "googleMapsUri": "https://maps.google.com/?cid=10785056520384718737"
  },
  {
    "name": "BH Recycle Electronic Waste Recycling and Other scraps.",
    "address": "Av. General David Sarnoff, 2690 - Cidade Industrial, Contagem - MG, 32210-110, Brazil",
    "latitude": -19.9570892,
    "longitude": -44.034969499999995,
    "googleMapsUri": "https://maps.google.com/?cid=17179719718753174448"
  },
  {
    "name": "coletamos eletrônicos, sucatas, eletrodomésticos, metais, entre outros DMT Reciclagem",
    "address": "R. José Hauer, 1228 - Boqueirão, Curitiba - PR, 81730-400, Brazil",
    "latitude": -25.5031666,
    "longitude": -49.2266031,
    "googleMapsUri": "https://maps.google.com/?cid=9821351342521389985"
  },
  {
    "name": "MG Recicla Reciclagem de Lixo Eletrônico",
    "address": "Rua Sararé, 47 - Jardinópolis, Belo Horizonte - MG, 30512-010, Brazil",
    "latitude": -19.9408104,
    "longitude": -44.0015892,
    "googleMapsUri": "https://maps.google.com/?cid=18240643095802765991"
  },
  {
    "name": "Reciclagem Capital",
    "address": "R. Dr. Simão Kossobudski, 410 - Uberaba, Curitiba - PR, 81580-250, Brazil",
    "latitude": -25.498380599999997,
    "longitude": -49.2208767,
    "googleMapsUri": "https://maps.google.com/?cid=3419951072410979977"
  },
  {
    "name": "Eco Recicla Ambiental",
    "address": "R. Lamenha Lins, 3491 - Centro, Curitiba - PR, 80220-081, Brazil",
    "latitude": -25.4655968,
    "longitude": -49.263001599999996,
    "googleMapsUri": "https://maps.google.com/?cid=11096119075349083879"
  },
  {
    "name": "Reciclatron Reciclagem de Eletrônicos",
    "address": "Rua Anne Frank, 109 - Portão 2 - Hauer, Curitiba - PR, 81610-020, Brazil",
    "latitude": -25.4691014,
    "longitude": -49.2517177,
    "googleMapsUri": "https://maps.google.com/?cid=13832450277811397182"
  },
  {
    "name": "COLETABH",
    "address": "R. Afluentes, 100 - Serrano, Belo Horizonte - MG, 30882-110, Brazil",
    "latitude": -19.887330199999997,
    "longitude": -44.008953899999995,
    "googleMapsUri": "https://maps.google.com/?cid=7675315384447747249"
  },
  {
    "name": "Plush Gerenciamento de Resíduos Ltda",
    "address": "R. Prof. José Farâni Mansur Guérios, 26 - Parolin, Curitiba - PR, 80220-420, Brazil",
    "latitude": -25.4676757,
    "longitude": -49.2599856,
    "googleMapsUri": "https://maps.google.com/?cid=12597407297648779943"
  },
  {
    "name": "Ecologitec-Descarte de eletrônicos-Descarte de uniformes-Descarte de móveis-Descarte de sofás - entulhos- em Curitiba.",
    "address": "R. Raul de Azevedo Macedo, 179 - sala 02 - Xaxim, Curitiba - PR, 81830-180, Brazil",
    "latitude": -25.5053767,
    "longitude": -49.267768399999994,
    "googleMapsUri": "https://maps.google.com/?cid=14876761711548334231"
  },
  {
    "name": "Reciclar Reciclagem LTDA.",
    "address": "Rua Engenheiro Ariel Villar Tacla, 61 - Cidade Industrial de Curitiba, Curitiba - PR, 81350-230, Brazil",
    "latitude": -25.502221,
    "longitude": -49.3263341,
    "googleMapsUri": "https://maps.google.com/?cid=10493507680250232497"
  },
  {
    "name": "Grupo Éco Reciclagem",
    "address": "R. Alceu Ferreira, 432 - Guabirotuba, Curitiba - PR, 81510-240, Brazil",
    "latitude": -25.465473,
    "longitude": -49.2503719,
    "googleMapsUri": "https://maps.google.com/?cid=13333576578739949823"
  },
  {
    "name": "Ester Reciclagem Ambiental",
    "address": "Rua Bom Jesus de Iguape, 3761 - Hauer, Curitiba - PR, 81650-030, Brazil",
    "latitude": -25.4968586,
    "longitude": -49.2369225,
    "googleMapsUri": "https://maps.google.com/?cid=13592126024878495365"
  },
  {
    "name": "BR Aparas",
    "address": "R. Eduardo Pinto da Rocha, 4815 E - Sítio Cercado, Curitiba - PR, 81935-000, Brazil",
    "latitude": -25.561738,
    "longitude": -49.2660158,
    "googleMapsUri": "https://maps.google.com/?cid=3793328620845511236"
  },
  {
    "name": "ASSOCIAÇÃO DE CATADORES DE MATERIAIS ECOPAR (ECO CIDADÃO)",
    "address": "R. Lamenha Lins, 3471 - Parolin, Curitiba - PR, 80220-081, Brazil",
    "latitude": -25.4655639,
    "longitude": -49.263097900000005,
    "googleMapsUri": "https://maps.google.com/?cid=11928145874803351008"
  },
  {
    "name": "Ecoponto Caiuá",
    "address": "Av. Juscelino Kubitschek De Oliveira - Ld, 6800 - Cidade Industrial de Curitiba, Curitiba - PR, 81250-460, Brazil",
    "latitude": -25.4909911,
    "longitude": -49.3454449,
    "googleMapsUri": "https://maps.google.com/?cid=17576506916598557064"
  },
  {
    "name": "Ares do Paraná gestão e transporte de resíduos",
    "address": "Rua Antônio Gai, 285 - Tatuquara, Curitiba - PR, 81480-140, Brazil",
    "latitude": -25.5703176,
    "longitude": -49.3128071,
    "googleMapsUri": "https://maps.google.com/?cid=9977778622369257436"
  },
  {
    "name": "Lagrisul",
    "address": "R. Laudelino Ferreira Lopes, 935 - Capão Raso, Curitiba - PR, 81130-310, Brazil",
    "latitude": -25.5001428,
    "longitude": -49.3041877,
    "googleMapsUri": "https://maps.google.com/?cid=564602596029576060"
  },
  {
    "name": "Ecoponto Érico Veríssimo",
    "address": "R. Cap. Amin Mosse, 557 - Alto Boqueirão, Curitiba - PR, 81850-150, Brazil",
    "latitude": -25.5320178,
    "longitude": -49.25133520000001,
    "googleMapsUri": "https://maps.google.com/?cid=2351043893724447956"
  },
  {
    "name": "Instituto Lixo e Cidadania",
    "address": "R. Voluntários da Pátria, 233 - 51 - Centro, Curitiba - PR, 80020-000, Brazil",
    "latitude": -25.4333523,
    "longitude": -49.2745572,
    "googleMapsUri": "https://maps.google.com/?cid=5907858231371785122"
  }
]