[
  {
    "name": "BH Recycle Electronic Waste Recycling and Other scraps.",
    "address": "Av. General David Sarnoff, 2690 - Cidade Industrial, Contagem - MG, 32210-110, Brazil",
    "latitude": -19.9570892,
    "longitude": -44.034969499999995,
    "googleMapsUri": "https://maps.google.com/?cid=17179719718753174448"
  },
  {
    "name": "Capital Recicláveis: Reciclagem, Coleta Lixo Orgânico, Resíduos, Brasília DF",
    "address": "SCIA q9, Conjunto 1 L, 1 - Cidade dos Automóveis, Brasília - DF, 71250-810, Brazil",
    "latitude": -15.780830799999999,
    "longitude": -47.9845171,
    "googleMapsUri": "https://maps.google.com/?cid=7587067081545100628"
  },
  {
    "name": "MG Recicla Reciclagem de Lixo Eletrônico",
    "address": "Rua Sararé, 47 - Jardinópolis, Belo Horizonte - MG, 30512-010, Brazil",
    "latitude": -19.9408104,
    "longitude": -44.0015892,
    "googleMapsUri": "https://maps.google.com/?cid=18240643095802765991"
  },
  {
    "name": "Zero Impacto - Logística Reversa",
    "address": "SETOR DE ABASTECIMENTO E ARMAZENAMENTO NORTE - QUADRA 02 LOTE 805 - SAAN, Brasília - DF, 70632-250, Brazil",
    "latitude": -15.762633699999999,
    "longitude": -47.935500399999995,
    "googleMapsUri": "https://maps.google.com/?cid=14783728902387559217"
  },
  {
    "name": "Coletamos seu lixo eletrônico em casa ou empresa pelo cataki",
    "address": "Águas claras shopping - Águas Claras, Brasília - DF, 71936-250, Brazil",
    "latitude": -15.834466999999998,
    "longitude": -48.043344999999995,
    "googleMapsUri": "https://maps.google.com/?cid=2737842917363974481"
  },
  {
    "name": "ECO AMBIENTAL FERRO VELHO & RECICLAVEIS",
    "address": "SHCGN CRN 706/707 bloco f lt 1 - Brasília, DF, 70740-660, Brazil",
    "latitude": -15.770173599999998,
    "longitude": -47.890343099999996,
    "googleMapsUri": "https://maps.google.com/?cid=17627956885845438899"
  },
  {
    "name": "Lixos Eletrônicos DF",
    "address": "Rua 3C - St. Hab. Vicente Pires Lote 22 loja 03 DF - DF, Brasília - DF, 72005-505, Brazil",
    "latitude": -15.7867965,
    "longitude": -48.0039296,
    "googleMapsUri": "https://maps.google.com/?cid=4810330112497023075"
  },
  {
    "name": "Lixo eletrônico Brasília e descarte de informática",
    "address": "setor qnq 01 conjunto 10 casa 09 Brasil setor qnq - Ceilândia, Brasília - DF, 72270-110, Brazil",
    "latitude": -15.8021241,
    "longitude": -48.1405691,
    "googleMapsUri": "https://maps.google.com/?cid=17509971034358315791"
  },
  {
    "name": "Ecoponto para descarte de lixo eletrônico,informática e celulares",
    "address": "RUA 04 CHÁCARA 09 CONDOMÍNIO TARUMÃ- VICENTE PIRES - St. Hab. Vicente Pires - Taguatinga, Brasília - DF, 72006-290, Brazil",
    "latitude": -15.8128383,
    "longitude": -48.013962799999995,
    "googleMapsUri": "https://maps.google.com/?cid=10136647139296908641"
  },
  {
    "name": "Sia Recicla",
    "address": "SIA Trecho 17 Rua 3, 860 - Guará, Brasília - DF, 71200-207, Brazil",
    "latitude": -15.798486199999997,
    "longitude": -47.9661864,
    "googleMapsUri": "https://maps.google.com/?cid=6850236709227335996"
  },
  {
    "name": "3R Ambiental",
    "address": "STRC TRECHO 04 CONJUNTO C LOTE 02 - SETOR DE CARGAS Trecho 4 - Guará, Brasília - DF, 71225-543, Brazil",
    "latitude": -15.7924172,
    "longitude": -47.9895662,
    "googleMapsUri": "https://maps.google.com/?cid=12686752325314664818"
  },
  {
    "name": "Metal Nobre Reciclagem",
    "address": "SHCS CRS 502 - Asa Sul, Brasília - DF, 70330-530, Brazil",
    "latitude": -15.801407900000001,
    "longitude": -47.8938956,
    "googleMapsUri": "https://maps.google.com/?cid=13282854000396751560"
  }
]