[
  {
    "name": "Capital Recicláveis: Reciclagem, Coleta Lixo Orgânico, Resíduos, Brasília DF",
    "address": "SCIA q9, Conjunto 1 L, 1 - Cidade dos Automóveis, Brasília - DF, 71250-810, Brazil",
    "latitude": -15.780830799999999,
    "longitude": -47.9845171,
    "googleMapsUri": "https://maps.google.com/?cid=7587067081545100628"
  },
  {
    "name": "MG Recicla Reciclagem de Lixo Eletrônico",
    "address": "Rua Sararé, 47 - Jardinópolis, Belo Horizonte - MG, 30512-010, Brazil",
    "latitude": -19.9408104,
    "longitude": -44.0015892,
    "googleMapsUri": "https://maps.google.com/?cid=18240643095802765991"
  },
  {
    "name": "Coletor de vidro",
    "address": "53FJ+J9 - Brasília, Federal District, 70360-510, Brazil",
    "latitude": -15.825997199999998,
    "longitude": -47.9191138,
    "googleMapsUri": "https://maps.google.com/?cid=9919026875937194920"
  },
  {
    "name": "BH Recycle Electronic Waste Recycling and Other scraps.",
    "address": "Av. General David Sarnoff, 2690 - Cidade Industrial, Contagem - MG, 32210-110, Brazil",
    "latitude": -19.9570892,
    "longitude": -44.034969499999995,
    "googleMapsUri": "https://maps.google.com/?cid=17179719718753174448"
  },
  {
    "name": "Coleta de vidros",
    "address": "SCLRN 716 - SHCGN SHCGN 716 - Asa Norte, Brasília - DF, 70760-780, Brazil",
    "latitude": -15.740269999999999,
    "longitude": -47.8991419,
    "googleMapsUri": "https://maps.google.com/?cid=10166110498386542938"
  },
  {
    "name": "Ponto de coleta de Vidros N°34",
    "address": "Shc/Norte Cl Qd 309 BL A - Asa Norte, Brasília - DF, 70755-510, Brazil",
    "latitude": -15.762263700000002,
    "longitude": -47.888374299999995,
    "googleMapsUri": "https://maps.google.com/?cid=1796043781243952088"
  },
  {
    "name": "Green Ambiental - Ponto de Coleta",
    "address": "SPVP, 024 - Brasília, DF, 70297-400, Brazil",
    "latitude": -15.794808000000002,
    "longitude": -47.844107,
    "googleMapsUri": "https://maps.google.com/?cid=16362987236346440376"
  },
  {
    "name": "ECO AMBIENTAL FERRO VELHO & RECICLAVEIS",
    "address": "SHCGN CRN 706/707 bloco f lt 1 - Brasília, DF, 70740-660, Brazil",
    "latitude": -15.770173599999998,
    "longitude": -47.890343099999996,
    "googleMapsUri": "https://maps.google.com/?cid=17627956885845438899"
  },
  {
    "name": "Coletamos seu lixo eletrônico em casa ou empresa pelo cataki",
    "address": "Águas claras shopping - Águas Claras, Brasília - DF, 71936-250, Brazil",
    "latitude": -15.834466999999998,
    "longitude": -48.043344999999995,
    "googleMapsUri": "https://maps.google.com/?cid=2737842917363974481"
  },
  {
    "name": "Ecoponto para descarte de lixo eletrônico,informática e celulares",
    "address": "RUA 04 CHÁCARA 09 CONDOMÍNIO TARUMÃ- VICENTE PIRES - St. Hab. Vicente Pires - Taguatinga, Brasília - DF, 72006-290, Brazil",
    "latitude": -15.8128383,
    "longitude": -48.013962799999995,
    "googleMapsUri": "https://maps.google.com/?cid=10136647139296908641"
  },
  {
    "name": "Ponto Verde - Nova Suissa",
    "address": "Nova Suíça, Belo Horizonte - State of Minas Gerais, 30450-250, Brazil",
    "latitude": -19.9368695,
    "longitude": -43.972516399999996,
    "googleMapsUri": "https://maps.google.com/?cid=2735813648822248833"
  },
  {
    "name": "Sia Recicla",
    "address": "SIA Trecho 17 Rua 3, 860 - Guará, Brasília - DF, 71200-207, Brazil",
    "latitude": -15.798486199999997,
    "longitude": -47.9661864,
    "googleMapsUri": "https://maps.google.com/?cid=6850236709227335996"
  },
  {
    "name": "Lixo eletrônico Brasília e descarte de informática",
    "address": "setor qnq 01 conjunto 10 casa 09 Brasil setor qnq - Ceilândia, Brasília - DF, 72270-110, Brazil",
    "latitude": -15.8021241,
    "longitude": -48.1405691,
    "googleMapsUri": "https://maps.google.com/?cid=17509971034358315791"
  },
  {
    "name": "Cooperativa de Catadores Recicla Mais Brasil",
    "address": "Quadra 5 Conj D Aréa Especial - Paranoá, Brasília - DF, 71570-500, Brazil",
    "latitude": -15.7786759,
    "longitude": -47.7858561,
    "googleMapsUri": "https://maps.google.com/?cid=4614527667346396940"
  },
  {
    "name": "Instituto Nacional Pela Reciclagem",
    "address": "SHCN CLN 308 BL D - Asa Norte, Brasília - DF, 70747-540, Brazil",
    "latitude": -15.762928299999999,
    "longitude": -47.889289399999996,
    "googleMapsUri": "https://maps.google.com/?cid=3441000056070384948"
  }
]