[
  {
    "name": "MG Recicla Reciclagem de Lixo Eletrônico",
    "address": "Rua Sararé, 47 - Jardinópolis, Belo Horizonte - MG, 30512-010, Brazil",
    "latitude": -19.9408104,
    "longitude": -44.0015892,
    "googleMapsUri": "https://maps.google.com/?cid=18240643095802765991"
  },
  {
    "name": "Central de Tratamento de Resíduos Sólidos - Balança",
    "address": "Rua Carlos Eduardo Lott, 205 - Jardim Filadelfia, Belo Horizonte - MG, 30865-230, Brazil",
    "latitude": -19.919425699999998,
    "longitude": -44.0190133,
    "googleMapsUri": "https://maps.google.com/?cid=10923075831895482096"
  },
  {
    "name": "BH Recycle Electronic Waste Recycling and Other scraps.",
    "address": "Av. General David Sarnoff, 2690 - Cidade Industrial, Contagem - MG, 32210-110, Brazil",
    "latitude": -19.9570892,
    "longitude": -44.034969499999995,
    "googleMapsUri": "https://maps.google.com/?cid=17179719718753174448"
  },
  {
    "name": "COLETABH",
    "address": "R. Afluentes, 100 - Serrano, Belo Horizonte - MG, 30882-110, Brazil",
    "latitude": -19.887330199999997,
    "longitude": -44.008953899999995,
    "googleMapsUri": "https://maps.google.com/?cid=7675315384447747249"
  },
  {
    "name": "SOS GREEN Gestão de Descarte Eletrônico",
    "address": "R. Contagem, 868 - loja c - Santa Ines, Belo Horizonte - MG, 31080-255, Brazil",
    "latitude": -19.8894554,
    "longitude": -43.905776800000005,
    "googleMapsUri": "https://maps.google.com/?cid=13568047759688273150"
  },
  {
    "name": "Ponto de Coleta de Lixo Eletrônico - PROPAM",
    "address": "R. Rad. Ubaldo Ferreira, 20 - Castelo, Belo Horizonte - MG, 31330-294, Brazil",
    "latitude": -19.876649699999998,
    "longitude": -43.9940334,
    "googleMapsUri": "https://maps.google.com/?cid=5801323347902493062"
  },
  {
    "name": "CRBIOLOGIC - Coleta de Resíduos",
    "address": "R. Cocáis, 555 - Esplanada, Belo Horizonte - MG, 30280-150, Brazil",
    "latitude": -19.9032904,
    "longitude": -43.901461399999995,
    "googleMapsUri": "https://maps.google.com/?cid=15762303171621970782"
  },
  {
    "name": "URPV - Unidade de Recebimento de Pequenos Volumes - Liberdade",
    "address": "R. Flôr de Índio, 105 - Liberdade, Belo Horizonte - MG, 31270-215, Brazil",
    "latitude": -19.8656786,
    "longitude": -43.9556073,
    "googleMapsUri": "https://maps.google.com/?cid=8873409580448511062"
  },
  {
    "name": "Lider Residuos Coleta e Transporte",
    "address": "Av. do Contorno, 2905 - Santa Efigênia, Belo Horizonte - MG, 30110-001, Brazil",
    "latitude": -19.921758699999998,
    "longitude": -43.921090199999995,
    "googleMapsUri": "https://maps.google.com/?cid=447676341928008371"
  },
  {
    "name": "URPV - Unidade de Recebimento de Pequenos Volumes - Átila de Paiva",
    "address": "Av. do Canal, 68 - Átila de Paiva, Belo Horizonte - MG, 30640-360, Brazil",
    "latitude": -19.9762348,
    "longitude": -44.0288099,
    "googleMapsUri": "https://maps.google.com/?cid=10991901915903016982"
  },
  {
    "name": "URPV PBH Castelo (Unidade Recebimento Pequenos Volumes)",
    "address": "Av. Pres. Tancredo Neves - Castelo, Belo Horizonte - MG, 30840-535, Brazil",
    "latitude": -19.8733277,
    "longitude": -43.9935037,
    "googleMapsUri": "https://maps.google.com/?cid=4962924853626298742"
  },
  {
    "name": "Projeto Pro Verde - Lixo Eletrônico",
    "address": "R. Itajubá, 170 A - Floresta, Belo Horizonte - MG, 30150-380, Brazil",
    "latitude": -19.9151839,
    "longitude": -43.9305077,
    "googleMapsUri": "https://maps.google.com/?cid=5310481154771040767"
  },
  {
    "name": "URPV - Unidade de Recebimento de Pequenos Volumes - Andradas I",
    "address": "Av. dos Andradas, 19544-19564 - Centro, Belo Horizonte - MG, 31060, Brazil",
    "latitude": -19.9014429,
    "longitude": -43.906844299999996,
    "googleMapsUri": "https://maps.google.com/?cid=5693099990039151947"
  },
  {
    "name": "URPV( UNIDADE DE RECEBIMENTO DE PEQUENOS VOLUMES)",
    "address": "Av. Dep. Anuar Menhem, 550 - Santa Branca, Belo Horizonte - MG, 31560-200, Brazil",
    "latitude": -19.8371037,
    "longitude": -43.972035,
    "googleMapsUri": "https://maps.google.com/?cid=9698175566491216091"
  },
  {
    "name": "Inovar Ambiental Coleta, Transporte e Tratamento de Resíduos",
    "address": "6058 e 6068 - Av. Beira-Rio - Distrito Industrial Simão da Cunha, Santa Luzia - MG, 33040-060, Brazil",
    "latitude": -19.812075099999998,
    "longitude": -43.8755677,
    "googleMapsUri": "https://maps.google.com/?cid=7569988596260145198"
  },
  {
    "name": "URPV - Unidade de Recebimento de Pequenos Volumes - Vilarinho",
    "address": "Av. Vilarinho, 4441 - Venda Nova, Belo Horizonte - MG, 31615-250, Brazil",
    "latitude": -19.8025064,
    "longitude": -43.9767027,
    "googleMapsUri": "https://maps.google.com/?cid=8762451420629792"
  },
  {
    "name": "SINDILURB-MG",
    "address": "R. do Ouro, 33 - 5º - Bairro: Serra, Belo Horizonte - MG, 30220-000, Brazil",
    "latitude": -19.932083,
    "longitude": -43.9237271,
    "googleMapsUri": "https://maps.google.com/?cid=3419939105463054803"
  },
  {
    "name": "Trilho Ambiental",
    "address": "R. Piauí, 69 - Santa Efigênia, Belo Horizonte - MG, 30150-320, Brazil",
    "latitude": -19.9227118,
    "longitude": -43.924861799999995,
    "googleMapsUri": "https://maps.google.com/?cid=14851416812077426357"
  },
  {
    "name": "BH Ambiental",
    "address": "R. Geraldo Teixeira da Costa, 90 - Bom Jesus, Santa Luzia - MG, 33015-410, Brazil",
    "latitude": -19.756922799999998,
    "longitude": -43.8460678,
    "googleMapsUri": "https://maps.google.com/?cid=1344765256498243281"
  }
]