[
  {
    "name": "MG Recicla Reciclagem de Lixo Eletrônico",
    "address": "Rua Sararé, 47 - Jardinópolis, Belo Horizonte - MG, 30512-010, Brazil",
    "latitude": -19.9408104,
    "longitude": -44.0015892,
    "googleMapsUri": "https://maps.google.com/?cid=18240643095802765991"
  },
  {
    "name": "BH Recycle Electronic Waste Recycling and Other scraps.",
    "address": "Av. General David Sarnoff, 2690 - Cidade Industrial, Contagem - MG, 32210-110, Brazil",
    "latitude": -19.9570892,
    "longitude": -44.034969499999995,
    "googleMapsUri": "https://maps.google.com/?cid=17179719718753174448"
  },
  {
    "name": "Reciclagem Horizonte BH",
    "address": "R. Salomão Camargos, 54 - Jardinópolis, Belo Horizonte - MG, 30532-230, Brazil",
    "latitude": -19.943107599999998,
    "longitude": -44.0048183,
    "googleMapsUri": "https://maps.google.com/?cid=12837953774266496971"
  },
  {
    "name": "COLETABH",
    "address": "R. Afluentes, 100 - Serrano, Belo Horizonte - MG, 30882-110, Brazil",
    "latitude": -19.887330199999997,
    "longitude": -44.008953899999995,
    "googleMapsUri": "https://maps.google.com/?cid=7675315384447747249"
  },
  {
    "name": "CMR - Reciclagem de Resíduos e Sucatas Ltda",
    "address": "R. Paracatu, 15 - Barro Preto, Belo Horizonte - MG, 30180-090, Brazil",
    "latitude": -19.9180323,
    "longitude": -43.9505427,
    "googleMapsUri": "https://maps.google.com/?cid=5209046418202391975"
  },
  {
    "name": "Reciclagem Tc",
    "address": "Av. Teresa Cristina, 8880 - Betânia, Belo Horizonte - MG, 30662-537, Brazil",
    "latitude": -19.9579473,
    "longitude": -43.994594299999996,
    "googleMapsUri": "https://maps.google.com/?cid=7439365322124626995"
  },
  {
    "name": "Reciclagem BH",
    "address": "R. Frei Gáspar, 10 - Me. Gertrudes, Belo Horizonte - MG, 30512-100, Brazil",
    "latitude": -19.946286,
    "longitude": -44.0054553,
    "googleMapsUri": "https://maps.google.com/?cid=12831369268436959945"
  },
  {
    "name": "AMBIENTAL MATERIAIS RECICLÁVEIS",
    "address": "R. Alfa, 455 - Vila Paris, Contagem - MG, 32372-080, Brazil",
    "latitude": -19.922455700000004,
    "longitude": -44.0237963,
    "googleMapsUri": "https://maps.google.com/?cid=14563460722844919714"
  },
  {
    "name": "Centro de Reciclagem - SLU GERLU NORDESTE",
    "address": "R. Princesa Leopoldina, 485 - Ipiranga, Belo Horizonte - MG, 31160-120, Brazil",
    "latitude": -19.885171,
    "longitude": -43.9326114,
    "googleMapsUri": "https://maps.google.com/?cid=13091864278075519155"
  },
  {
    "name": "Reciclando BH",
    "address": "Av. Álvaro da Silveira, 170 - Barreiro, Belo Horizonte - MG, 30662-537, Brazil",
    "latitude": -19.9719886,
    "longitude": -44.018167,
    "googleMapsUri": "https://maps.google.com/?cid=1613440270579423004"
  },
  {
    "name": "Lider Residuos Coleta e Transporte",
    "address": "Av. do Contorno, 2905 - Santa Efigênia, Belo Horizonte - MG, 30110-001, Brazil",
    "latitude": -19.921758699999998,
    "longitude": -43.921090199999995,
    "googleMapsUri": "https://maps.google.com/?cid=447676341928008371"
  },
  {
    "name": "Ponto de Coleta de Lixo Eletrônico - PROPAM",
    "address": "R. Rad. Ubaldo Ferreira, 20 - Castelo, Belo Horizonte - MG, 31330-294, Brazil",
    "latitude": -19.876649699999998,
    "longitude": -43.9940334,
    "googleMapsUri": "https://maps.google.com/?cid=5801323347902493062"
  },
  {
    "name": "URPV - Unidade de Recebimento de Pequenos Volumes - Liberdade",
    "address": "R. Flôr de Índio, 105 - Liberdade, Belo Horizonte - MG, 31270-215, Brazil",
    "latitude": -19.8656786,
    "longitude": -43.9556073,
    "googleMapsUri": "https://maps.google.com/?cid=8873409580448511062"
  },
  {
    "name": "Reciclar",
    "address": "Rua José Marra Freitas, 980 - Nova Esperança, Belo Horizonte - MG, 31230-290, Brazil",
    "latitude": -19.900590599999997,
    "longitude": -43.9621804,
    "googleMapsUri": "https://maps.google.com/?cid=18153943082624654626"
  },
  {
    "name": "URPV - Unidade de Recebimento de Pequenos Volumes - Átila de Paiva",
    "address": "Av. do Canal, 68 - Átila de Paiva, Belo Horizonte - MG, 30640-360, Brazil",
    "latitude": -19.9762348,
    "longitude": -44.0288099,
    "googleMapsUri": "https://maps.google.com/?cid=10991901915903016982"
  },
  {
    "name": "Centro Mineiro de Referência em Resíduos - CMRR",
    "address": "Rua Belém, 40 - Pompéia, Belo Horizonte - MG, 30285-010, Brazil",
    "latitude": -19.9054063,
    "longitude": -43.8992335,
    "googleMapsUri": "https://maps.google.com/?cid=2535670156397632194"
  },
  {
    "name": "URPV - Unidade de Recebimento de Pequenos Volumes - Mem de Sá/Fazendinha",
    "address": "Av. Mem de Sá, 1860 - Santa Efigênia, Belo Horizonte - MG, 30250, Brazil",
    "latitude": -19.9314104,
    "longitude": -43.9079507,
    "googleMapsUri": "https://maps.google.com/?cid=8953553598732247672"
  },
  {
    "name": "Associrecicle - Associação Dos Recicladores De Bh",
    "address": "Jardinópolis, Belo Horizonte - MG, 30532-210, Brazil",
    "latitude": -19.918289599999998,
    "longitude": -43.948134599999996,
    "googleMapsUri": "https://maps.google.com/?cid=12470345286786503595"
  },
  {
    "name": "Decoferma",
    "address": "MG-05, 332 - Ipê, Belo Horizonte - MG, 31930-010, Brazil",
    "latitude": -19.861802400000002,
    "longitude": -43.905193,
    "googleMapsUri": "https://maps.google.com/?cid=4127314964182861597"
  },
  {
    "name": "URPV PBH Castelo (Unidade Recebimento Pequenos Volumes)",
    "address": "Av. Pres. Tancredo Neves - Castelo, Belo Horizonte - MG, 30840-535, Brazil",
    "latitude": -19.8733277,
    "longitude": -43.9935037,
    "googleMapsUri": "https://maps.google.com/?cid=4962924853626298742"
  }
]