[
  {
    "name": "Ecoponto Vila Mariana",
    "address": "R. Afonso Celso, 147 - Vila Mariana, São Paulo - SP, 04119-002, Brazil",
    "latitude": -23.592918299999997,
    "longitude": -46.6349124,
    "googleMapsUri": "https://maps.google.com/?cid=10341652553425469752"
  },
  {
    "name": "Projeto Reciclar 100% do Lixo Domestico",
    "address": "R. Vaud, 205 - Lauzane Paulista, São Paulo - SP, 02443-060, Brazil",
    "latitude": -23.470904500000003,
    "longitude": -46.649077999999996,
    "googleMapsUri": "https://maps.google.com/?cid=17978794037496851930"
  },
  {
    "name": "Ecoponto Vila Jaguará",
    "address": "R. Agrestina, 189 - Jaguará, São Paulo - SP, 05117-100, Brazil",
    "latitude": -23.5165316,
    "longitude": -46.7415363,
    "googleMapsUri": "https://maps.google.com/?cid=1287839560305893124"
  },
  {
    "name": "Ecoponto Cidade Saudável",
    "address": "R. Ptolomeu, 869 - Vila Socorro, São Paulo - SP, 04762-040, Brazil",
    "latitude": -23.6623766,
    "longitude": -46.7223413,
    "googleMapsUri": "https://maps.google.com/?cid=16842751296435163277"
  },
  {
    "name": "BH Recycle Electronic Waste Recycling and Other scraps.",
    "address": "Av. General David Sarnoff, 2690 - Cidade Industrial, Contagem - MG, 32210-110, Brazil",
    "latitude": -19.9570892,
    "longitude": -44.034969499999995,
    "googleMapsUri": "https://maps.google.com/?cid=17179719718753174448"
  },
  {
    "name": "Ecoponto Vila Madalena Corpus",
    "address": "R. Girassol, 21 - Vila Madalena, São Paulo - SP, 05433-000, Brazil",
    "latitude": -23.5581903,
    "longitude": -46.687346500000004,
    "googleMapsUri": "https://maps.google.com/?cid=1061791987726596692"
  },
  {
    "name": "MG Recicla Reciclagem de Lixo Eletrônico",
    "address": "Rua Sararé, 47 - Jardinópolis, Belo Horizonte - MG, 30512-010, Brazil",
    "latitude": -19.9408104,
    "longitude": -44.0015892,
    "googleMapsUri": "https://maps.google.com/?cid=18240643095802765991"
  },
  {
    "name": "Ecoponto Bresser",
    "address": "Praça Giuseppe Cesari, 54 - Brás, São Paulo - SP, 03053-020, Brazil",
    "latitude": -23.543787899999998,
    "longitude": -46.606181299999996,
    "googleMapsUri": "https://maps.google.com/?cid=7702771096375011731"
  },
  {
    "name": "Electronic Waste Disposal",
    "address": "Av. Corifeu de Azevedo Marques, 1003 - Butantã, São Paulo - SP, 05581-000, Brazil",
    "latitude": -23.573175799999998,
    "longitude": -46.7242057,
    "googleMapsUri": "https://maps.google.com/?cid=11057991706863347517"
  },
  {
    "name": "Ecoponto Tatuapé",
    "address": "Av. Salim Farah Maluf, 179 - Tatuapé, São Paulo - SP, 03076-000, Brazil",
    "latitude": -23.5299194,
    "longitude": -46.5830236,
    "googleMapsUri": "https://maps.google.com/?cid=9224786212586696457"
  },
  {
    "name": "Coleta de Lixo Eletrônico SP | Sucata Digital ® descarte correto São Paulo",
    "address": "R. Templários, 192 - Vila Formosa, São Paulo - SP, 03357-000, Brazil",
    "latitude": -23.5654215,
    "longitude": -46.557198799999995,
    "googleMapsUri": "https://maps.google.com/?cid=4825879670813915327"
  },
  {
    "name": "Ecoponto Santa Cruz",
    "address": "R. Santa Cruz, 1452 - Vila Mariana, São Paulo - SP, 04122-001, Brazil",
    "latitude": -23.5996354,
    "longitude": -46.623348199999995,
    "googleMapsUri": "https://maps.google.com/?cid=17931053206479840577"
  },
  {
    "name": "Cooperativa de Reciclagem Crescer",
    "address": "R. Marina Ciufuli Zanfelice, 289 - Lapa, São Paulo - SP, 05040-000, Brazil",
    "latitude": -23.513469399999998,
    "longitude": -46.7072862,
    "googleMapsUri": "https://maps.google.com/?cid=8647176198509166680"
  },
  {
    "name": "Ecoponto Barra Funda",
    "address": "R. Cônego Vicente Miguel Marino, 22 - Barra Funda, São Paulo - SP, 01135-020, Brazil",
    "latitude": -23.527129499999997,
    "longitude": -46.6485431,
    "googleMapsUri": "https://maps.google.com/?cid=4066302773453378213"
  },
  {
    "name": "Descarte Eletrônico | Eletro Recicle",
    "address": "Praça Albino Francisco de Figueiredo, 19 - Vila Fernandes, São Paulo - SP, 03433-040, Brazil",
    "latitude": -23.5598834,
    "longitude": -46.536742499999995,
    "googleMapsUri": "https://maps.google.com/?cid=881025490478016179"
  },
  {
    "name": "Ecoponto Vila Matilde",
    "address": "R. Mateus de Siqueira - Cidade Patriarca, São Paulo - SP, 03556-020, Brazil",
    "latitude": -23.539309799999998,
    "longitude": -46.5050473,
    "googleMapsUri": "https://maps.google.com/?cid=12605393514803061942"
  },
  {
    "name": "Ecoponto São Lucas",
    "address": "R. Florêncio Sanches, 307 - Vila Prudente, São Paulo - SP, 03266-200, Brazil",
    "latitude": -23.599094299999997,
    "longitude": -46.5344651,
    "googleMapsUri": "https://maps.google.com/?cid=14866593024281027801"
  },
  {
    "name": "Ecoponto Jardim Maria do Carmo",
    "address": "R. Caminho do Engenho, 800 - Ferreira, São Paulo - SP, 05524-000, Brazil",
    "latitude": -23.5954989,
    "longitude": -46.7467549,
    "googleMapsUri": "https://maps.google.com/?cid=6030706821388944686"
  },
  {
    "name": "Coleta de Lixo Eletrônico",
    "address": "Av. Rodrigues Montemor, 565 - Cidade Domitila, São Paulo - SP, 04387-002, Brazil",
    "latitude": -23.663867099999997,
    "longitude": -46.6499575,
    "googleMapsUri": "https://maps.google.com/?cid=11550265277645218943"
  },
  {
    "name": "Centro de Descarte e Reúso de Resíduos de Informática - CEDIR",
    "address": "Tv. das Nações, 396 - Butantã, São Paulo - SP, 05508-020, Brazil",
    "latitude": -23.5558017,
    "longitude": -46.7284705,
    "googleMapsUri": "https://maps.google.com/?cid=4395896526491867580"
  }
]